[
    {
        "name": "안산자락길",
        "lat": 37.576564,
        "lng": 126.935436,
        "address": "서울 서대문구 통일로 279-22",
        "hours": "",
        "description": "등산이 어려운 보행약자들을 위해 무장애 순환형으로 설계된 이 길은 9% 미만의 경사도와 평평한 나무 데크로 조성되어 있다.",
        "category": "parks",
        "image": "resources/안산자락길.png"
    },
    {
        "name": "문화역 서울 284",
        "lat": 37.556002,
        "lng": 126.972348,
        "address": "서울특별시 중구 통일로 1 서울역",
        "hours": "화-일요일 (10:00~19:00)",
        "description": "당시 역사 내부의 모습을 그대로 살려 리모델링했기 때문에 향수를 불러일으키기에 충분하다. 출입통로에 단차가 없고 공간의 폭이 넓어 휠체어 이동도 문제없다.",
        "category": "museums",
        "image": "resources/문화역 서울.png"
    },
    {
        "name": "국립중앙박물관",
        "lat": 37.523984,
        "lng": 126.980355,
        "address": "서울특별시 용산구 서빙고로 137",
        "hours": "매주 10:00 개장",
        "description": "한국을 대표하는 박물관. 음성 안내 가이드는 물론 수어 통역사가 상시 대기해 청각장애인의 전시 관람을 돕고 각 전시실은 단차가 없어 휠체어로 이동이 용이하다.",
        "category": "museums",
        "image": "resources/국립중앙박물관.png"
    },
    {
        "name": "서울책보고",
        "lat": 37.505329,
        "lng": 127.104687,
        "address": "서울 송파구 오금로 1 서울책보고",
        "hours": "평일 11:00 ~ 20:00, 주말 및 공휴일 10:00 ~ 20:00",
        "description": "다양한 헌책방이 서울책보고 내에 입점해 있으며, 북 카페와 프로그램 공간도 함께 자리 잡고 있다. 접근로의 경사가 완만하고, 주출입구는 자동문이 설치되어 있다.",
        "category": "museums",
        "image": "resources/서울책보고.png"
    },
    {
        "name": "서울 암사동 유적",
        "lat": 37.570458,
        "lng": 127.128613,
        "address": "서울 강동구 올림픽로 875 (암사동, 서울 암사동 유적)",
        "hours": "화~일 매표시간 09:30 - 17:30, 관람시간 09:30 - 18:00",
        "description": "서울 암사동 유적은 지금으로부터 약 6,000여 년 전 신석기시대 사람들이 살았던 집터 유적으로 지금까지 우리나라에서 밝혀진 신석기시대의 최대 집단취락지이다.",
        "category": "museums",
        "image": "resources/서울 암사동 유적.png"
    },
    {
        "name": "키자니아 서울",
        "lat": 37.511094,
        "lng": 127.098231,
        "address": "서울 송파구 올림픽로 240 (잠실동, 롯데월드)",
        "hours": "",
        "description": "어린이들이 현실 세계의 직업을 체험하며, 진짜 어른이 되어 볼 수 있는 어린이 직업체험형 테마파크이다.",
        "category": "experience",
        "image": "resources/키자니아 서울.png"
    },
    {
        "name": "북서울꿈의숲 상상톡톡 미술관",
        "lat": 37.620005,
        "lng": 127.038643,
        "address": "서울 강북구 월계로 173 (북서울꿈의숲)",
        "hours": "10:00-18:00 (입장마감은 17:30)",
        "description": "‘자연 속 어린이 미술관’을 모토로 눈으로 보는 전시가 아닌 직접 체험하고 느낄 수 있는 어린이들만의 이색 체험장이다.",
        "category": "experience",
        "image": "resources/북서울꿈의숲 상상톡톡 미술관.png"
    },
    {
        "name": "서울공예박물관",
        "lat": 37.578798,
        "lng": 126.983584,
        "address": "서울 종로구 율곡로3길 4 (안국동, 서울공예박물관)",
        "hours": "10:00 - 18:00 (입장 마감 17:30)",
        "description": "서울공예박물관은 한국 최초의 공립 공예박물관으로 다양한 시대와 분야를 아우르는 2만여 점의 공예품과 자료를 전시하고 있다.",
        "category": "museums",
        "image": "resources/서울공예박물관.png"
    },
    {
        "name": "서울어린이대공원",
        "lat": 37.548014,
        "lng": 127.074665,
        "address": "서울 광진구 능동로 216 (능동, 어린이대공원)",
        "hours": "05:00~22:00 (단, 동물원, 식물원, 놀이동산은 10:00~17:00)",
        "description": "어린이대공원은 시민과 함께 가꾸고 즐기는 휴식공간이자 동식물이 행복하게 공존하는 생태공원으로 동물원과 놀이공원 이외에도 식물원, 음악 분수, 숲속의 무대 등과 같은 즐길 거리가 있다.",
        "category": "parks",
        "image": "resources/서울어린이대공원.png"
    },
    {
        "name": "서울숲",
        "lat": 37.544917,
        "lng": 127.037401,
        "address": "서울특별시 성동구 뚝섬로 273 (성수동1가)",
        "hours": "24시간 운영",
        "description": "서울 도심을 가로지르는 녹지 축의 하나로서 중요한 역할을 한다. 주요시설은 4개의 테마공원과 산책 시설로 구성된다.",
        "category": "parks",
        "image": "resources/서울숲.png"
    },
    {
        "name": "N서울타워",
        "lat": 37.5511694,
        "lng": 126.9882266,
        "address": "서울 용산구 남산공원길 105",
        "hours": "평일, 일요일 : 10:00~23:00, 토요일 : 10:00~22:00",
        "description": "수도의 아름다움 모습을 한 눈에 내려다 볼 수 있는 서울의 가장 높은 곳.",
        "category": "experience",
        "image": "resources/N서울타워.png"
    },
    {
        "name": "서울애니메이션센터",
        "lat": 37.558514,
        "lng": 126.981544,
        "address": "서울 중구 소공로 48 (회현동2가, 우리금융남산타워)",
        "hours": "1층 만화의집: 10:00~18:00, 2층애니소풍: 10:00~18:00",
        "description": "대한민국의 만화·애니메이션·캐릭터 산업 육성을 위해 서울시가 조성한 전시체험관이다.",
        "category": "experience",
        "image": "resources/서울애니메이션센터.png"
    },
    {
        "name": "서울식물원",
        "lat": 37.568715,
        "lng": 126.840842,
        "address": "서울 강서구 마곡동로 161 (마곡동, 서울식물원)",
        "hours": "9:00~18:00",
        "description": "서울식물원은 열린숲, 주제원, 호수원, 습지원으로 구성되어 있다. 방문자센터에는 인포센터 점자안내판이 있으며 휠체어 사용자의 접근이 쉬운 안내데스크와 안내판이 설치되어 있다.",
        "category": "parks",
        "image": "resources/서울식물원.png"
    }
]
